elapsedTime,accelX,accelY,accelZ,roll_rate,pitch_rate,yaw_rate,frontRight_motor_duty,frontLeft_motor_duty,rearRight_motor_duty,rearLeft_motor_duty
1.3999509811401367,-0.012824447825551033,0.011179402470588684,-1.003746509552002,0.00040894243284128606,-0.000824997085146606,0.001100871479138732,0.0,0.0,0.0,0.0
1.402703046798706,-0.01194500271230936,0.009334895759820938,-1.002654790878296,0.0009867212502285838,-0.00010791016393341124,0.0008500240510329604,0.0,0.0,0.0,0.0
1.4052209854125977,-0.012398788705468178,0.006857703439891338,-1.0034486055374146,-0.00018417532555758953,0.0007348894723691046,0.0007252453360706568,0.0,0.0,0.0,0.0
1.407731056213379,-0.012422651052474976,0.00751508679240942,-1.0052140951156616,0.00015085939958225936,0.0007070511928759515,0.0006575208972208202,0.0,0.0,0.0,0.0
1.4102200269699097,-0.012435583397746086,0.007982064969837666,-1.004953145980835,-0.00015061003796290606,0.0006919640582054853,0.00013777363346889615,0.0,0.0,0.0,0.0
1.4175360202789307,-0.012100353837013245,0.005437823943793774,-1.0045568943023682,-0.0019192540785297751,0.0014345417730510235,-0.0010619796812534332,0.08657712489366531,0.09444712102413177,0.05599561333656311,0.06572326272726059
1.4201070070266724,-0.012036915868520737,0.007547755725681782,-1.0040313005447388,-0.002253954531624913,0.0010834531858563423,-0.0003057924332097173,0.10118038952350616,0.10683876276016235,0.07789181172847748,0.08354030549526215
1.4226189851760864,-0.01055676955729723,0.007779670413583517,-1.0044193267822266,-0.002431940520182252,0.001382226007990539,-0.0008746168459765613,0.10893109440803528,0.11304733157157898,0.09246475994586945,0.09774348139762878
1.4251090288162231,-0.012523302808403969,0.0064657824113965034,-1.0056262016296387,-0.0005957211251370609,0.0020272203255444765,-0.0011827332200482488,0.11599944531917572,0.11845129728317261,0.10344389826059341,0.10742620378732681
1.4277210235595703,-0.013398775830864906,0.006751694716513157,-1.003348469734192,-0.0005576746189035475,0.0038763214834034443,-0.0018513163086026907,0.12909874320030212,0.12503120303153992,0.11561985313892365,0.10267376899719238
1.4301220178604126,-0.011241011321544647,0.009610973298549652,-1.0030537843704224,0.00040887086652219296,0.0015055222902446985,-0.0012455638498067856,0.12932980060577393,0.13203203678131104,0.11832478642463684,0.11328335106372833
1.432731032371521,-0.014529382809996605,0.009001541882753372,-1.0045859813690186,0.00047511575394310057,-0.0003678728826344013,0.00108851189725101,0.13033074140548706,0.13722185790538788,0.12340784817934036,0.1199999451637268
1.4351160526275635,-0.011554481461644173,0.010421250015497208,-1.0039606094360352,3.704776463564485e-05,9.347387822344899e-05,0.0022771903313696384,0.14742395281791687,0.13295821845531464,0.12891513109207153,0.11507637798786163
1.4376009702682495,-0.011739509180188179,0.007580264937132597,-1.0034935474395752,0.0007526353583671153,0.0008389920112676919,0.0010241220006719232,0.14388757944107056,0.1394863873720169,0.12778052687644958,0.12519827485084534
1.4401270151138306,-0.013292429968714714,0.008690828457474709,-1.0030126571655273,-0.0003133031423203647,0.0017373700393363833,0.00033259252086281776,0.14214715361595154,0.14269623160362244,0.12963229417800903,0.132037952542305
1.4426209926605225,-0.010583174414932728,0.00940038450062275,-1.0027533769607544,0.0005627500358968973,-0.0001961668604053557,0.0014104973524808884,0.1411464810371399,0.14559602737426758,0.13234849274158478,0.13568638265132904
1.4451160430908203,-0.011985612101852894,0.004910395015031099,-1.0026116371154785,0.0010412333067506552,-0.0012522274628281593,0.0015155404107645154,0.14440491795539856,0.14719656109809875,0.13388007879257202,0.13533015549182892
1.4477139711380005,-0.012994790449738503,0.007616856601089239,-1.0026459693908691,-0.002646774984896183,-0.0003583919315133244,0.0005854037590324879,0.14550375938415527,0.14879027009010315,0.13373412191867828,0.13743549585342407
1.4501399993896484,-0.011332685127854347,0.006503597367554903,-1.0018996000289917,0.00021197821479290724,0.0005793912569060922,0.00010516776819713414,0.14293742179870605,0.14072221517562866,0.14356932044029236,0.14225047826766968
1.452705979347229,-0.012298527173697948,0.004518329165875912,-1.0021493434906006,-0.0001226951280841604,0.0006229052087292075,-0.0026241010054945946,0.14711619913578033,0.143533393740654,0.14032083749771118,0.1421990692615509
1.455227017402649,-0.011253423988819122,0.005799564998596907,-1.0054041147232056,-0.0007877887692302465,0.00015971032553352416,-0.0040811458602547646,0.16130194067955017,0.15059082210063934,0.12573321163654327,0.138602152466774
1.4626259803771973,-0.014884967356920242,0.00948999635875225,-1.0083335638046265,0.0009229232673533261,0.0005254753632470965,0.0022646530997008085,0.14261379837989807,0.1475529670715332,0.14761938154697418,0.1438930779695511
1.4650110006332397,-0.018781006336212158,0.012099053710699081,-1.0053995847702026,0.0021737401839345694,-0.0027114732656627893,0.002932420000433922,0.14605042338371277,0.15001565217971802,0.14345185458660126,0.14360378682613373
1.4675019979476929,-0.024548333138227463,0.011926528066396713,-1.0027284622192383,0.0019209713209420443,-0.003108783159404993,0.008629308082163334,0.14777731895446777,0.15509016811847687,0.14219927787780762,0.13927510380744934
1.4701370000839233,-0.018777376040816307,0.003495439188554883,-1.0047633647918701,0.0007823572959750891,-0.0008418747456744313,0.011339457705616951,0.15095844864845276,0.15595339238643646,0.1421143114566803,0.1371094286441803
1.47250497341156,-0.01275576651096344,-0.0024621100164949894,-1.0047082901000977,-0.0011992539511993527,0.002176325535401702,0.005651789717376232,0.15453499555587769,0.14939835667610168,0.14251086115837097,0.14135073125362396
1.4750100374221802,-0.0008410364389419556,-0.006452126894146204,-1.0047876834869385,0.0005668164812959731,0.00537056103348732,-0.0058678374625742435,0.15573126077651978,0.13409768044948578,0.1454065591096878,0.1541779339313507
1.4776560068130493,0.007676641456782818,0.0013771136291325092,-1.0060908794403076,-0.002435862086713314,0.004667127039283514,-0.020320851355791092,0.1569070965051651,0.14095458388328552,0.1383703202009201,0.1546592116355896
1.4800200462341309,-0.002592857927083969,0.012498337775468826,-1.0074951648712158,-0.004875231999903917,0.0005597621202468872,-0.020970087498426437,0.15343137085437775,0.1434682011604309,0.13861113786697388,0.15650582313537598
1.4825600385665894,-0.024574482813477516,0.027475913986563683,-1.002267837524414,-0.005806104280054569,-0.007202452979981899,-0.0013231951743364334,0.14768487215042114,0.15934333205223083,0.14324405789375305,0.14274391531944275
1.4850120544433594,-0.048109546303749084,0.025110654532909393,-0.9979538321495056,0.0018440715502947569,-0.01228390634059906,0.02444426901638508,0.14410088956356049,0.17341101169586182,0.1497970074415207,0.12650053203105927
1.4875149726867676,-0.043994635343551636,0.0019188318401575089,-0.9988844990730286,-0.00019748893100768328,-0.003967704717069864,0.036845337599515915,0.13145263493061066,0.1656583696603775,0.155580535531044,0.14177590608596802
1.4900189638137817,-0.010540256276726723,-0.02127910777926445,-1.003279447555542,0.004020219668745995,0.011713605374097824,0.012591073289513588,0.14775583148002625,0.14310012757778168,0.15019641816616058,0.15394717454910278
1.4925119876861572,0.02139042317867279,-0.02236950397491455,-1.0099905729293823,0.009214459918439388,0.020723871886730194,-0.03202306851744652,0.1659572720527649,0.11901403963565826,0.13587220013141632,0.17458313703536987
1.495013952255249,0.020544983446598053,0.0076754894107580185,-1.0062246322631836,-0.0034445668570697308,0.008699777536094189,-0.05110800266265869,0.16808147728443146,0.12027609348297119,0.1290142834186554,0.17839935421943665
1.4976179599761963,-0.021219877526164055,0.02952050417661667,-0.9983407258987427,-0.010992726311087608,-0.016314446926116943,-0.016201894730329514,0.15582066774368286,0.15525636076927185,0.14077675342559814,0.14420288801193237
1.5001360177993774,-0.04963841289281845,0.0176091231405735,-0.9925247430801392,-0.006210953928530216,-0.024117805063724518,0.0429825633764267,0.13816975057125092,0.1893388032913208,0.15797996520996094,0.11078914999961853
1.5073870420455933,0.003951174207031727,0.017759889364242554,-1.0237160921096802,0.01741006411612034,0.02581939660012722,-0.023181673139333725,0.1756763458251953,0.10761965811252594,0.12476110458374023,0.18859036266803741
1.5099159479141235,-0.0015411663334816694,0.03141206502914429,-1.0117517709732056,0.002877422608435154,0.01188161876052618,-0.06445035338401794,0.18164536356925964,0.10714392364025116,0.11208075284957886,0.1958804428577423
1.5124030113220215,-0.029503311961889267,-0.00019922107458114624,-0.9967978000640869,-0.013627838343381882,-0.01589197665452957,-0.04994435980916023,0.16952639818191528,0.13552972674369812,0.11976981163024902,0.17200574278831482
1.5149120092391968,-0.01450976449996233,-0.0364677868783474,-0.9961435794830322,-0.0018333876505494118,-0.011258290149271488,-0.004132760688662529,0.15151193737983704,0.1587691307067871,0.14788925647735596,0.1387268602848053
1.5175249576568604,0.02145359292626381,-0.0010795071721076965,-1.0139638185501099,0.020600583404302597,0.021075135096907616,0.028805557638406754,0.14122644066810608,0.16276100277900696,0.16492122411727905,0.12804260849952698
1.5198899507522583,0.00026564113795757294,0.04782622680068016,-1.013189435005188,0.0004923222586512566,0.015838535502552986,0.03373647481203079,0.13656580448150635,0.1645812690258026,0.1586633324623108,0.13718044757843018
1.5223959684371948,-0.04263590648770332,0.02283608354628086,-1.0010747909545898,-0.025662533938884735,-0.020639194175601006,0.013310717418789864,0.15716442465782166,0.16560177505016327,0.13194489479064941,0.14231330156326294
1.524886965751648,-0.02982860431075096,-0.024737104773521423,-0.9968215823173523,-0.00023936759680509567,-0.020635709166526794,-0.018078837543725967,0.1615511029958725,0.14771461486816406,0.12760597467422485,0.16017940640449524
1.527387022972107,0.0017078723758459091,0.007481335662305355,-0.9980443716049194,0.033531006425619125,0.01471405103802681,-0.043009981513023376,0.16481760144233704,0.12244048714637756,0.13675756752490997,0.17376907169818878
1.5298960208892822,-0.019417818635702133,0.027757640928030014,-1.007941484451294,-0.008658124133944511,0.01850796490907669,-0.02073327638208866,0.14599740505218506,0.14526188373565674,0.14437511563301086,0.16312925517559052
1.5323959589004517,-0.03777967765927315,-0.028914988040924072,-1.0140972137451172,-0.035945381969213486,-0.007029738277196884,0.01897357404232025,0.1387290507555008,0.17358429729938507,0.15298515558242798,0.13445699214935303
1.534891963005066,0.007429597899317741,-0.0076893167570233345,-1.0075840950012207,0.02175157330930233,-0.008369080722332,0.034324243664741516,0.1434422880411148,0.16721001267433167,0.1638946533203125,0.12469491362571716
1.5375380516052246,0.003833233378827572,0.052780404686927795,-0.998995304107666,0.030787203460931778,-0.0011355928145349026,0.025497544556856155,0.15544967353343964,0.1590650975704193,0.14822982251644135,0.13529600203037262
1.5398939847946167,-0.04166842997074127,-0.005553154274821281,-0.9980411529541016,-0.045302703976631165,-0.004088351037353277,9.43988561630249e-06,0.1625392585992813,0.15797168016433716,0.12457048892974854,0.15240034461021423
1.542402982711792,-0.013017537072300911,-0.016589289531111717,-1.0022690296173096,-0.009379164315760136,0.010209500789642334,-0.03903023898601532,0.17954012751579285,0.13124839961528778,0.12069684267044067,0.1657077521085739
1.5449349880218506,0.0079142265021801,0.04139994457364082,-0.9997777938842773,0.06635164469480515,0.0116958636790514,-0.03114118054509163,0.16651566326618195,0.1302073895931244,0.14416822791099548,0.15617257356643677
1.5522880554199219,0.04234781861305237,0.11932867020368576,-0.9810353517532349,0.16488225758075714,0.022782230749726295,0.034511011093854904,0.14125293493270874,0.1564873903989792,0.1737430989742279,0.12318865954875946
1.5547120571136475,-0.022620750591158867,0.017665885388851166,-1.005767583847046,0.04669173061847687,0.005760856904089451,0.02363024279475212,0.14410582184791565,0.16714924573898315,0.14325088262557983,0.13934890925884247
1.5573619604110718,-0.00010257679969072342,0.01270095631480217,-0.995619535446167,-0.031406864523887634,0.014366736635565758,-0.030649933964014053,0.15994712710380554,0.14135107398033142,0.11526786535978317,0.17646867036819458
1.5598080158233643,0.01836535893380642,0.06599024683237076,-0.9922138452529907,0.06906891614198685,0.002475178800523281,-0.019495511427521706,0.1627846360206604,0.1391451060771942,0.1379730999469757,0.15246936678886414
1.56222403049469,-0.04972659423947334,-0.04589051008224487,-1.0127856731414795,0.010942433029413223,-0.012584426440298557,-0.017194420099258423,0.1623517870903015,0.15225684642791748,0.13046421110630035,0.14674291014671326
1.5648889541625977,0.003067638725042343,0.018536575138568878,-0.9914959073066711,-0.04506082087755203,0.011693155393004417,-0.022866059094667435,0.13793732225894928,0.13918672502040863,0.13698093593120575,0.17798297107219696
1.5673869848251343,0.0018957073334604502,0.04627612978219986,-1.0072287321090698,0.030839383602142334,-0.004445566795766354,0.03812141716480255,0.11882085353136063,0.1594948172569275,0.1788400411605835,0.1355040967464447
1.5698870420455933,-0.05722754821181297,-0.04511650651693344,-1.0224756002426147,-0.0022967923432588577,-0.0035712136887013912,0.01815006509423256,0.14251229166984558,0.1548307240009308,0.15199288725852966,0.1439826488494873
1.5723880529403687,0.024733440950512886,0.05875462666153908,-0.9795128703117371,-0.01068828348070383,0.009498064406216145,0.0028955861926078796,0.1483270227909088,0.14896193146705627,0.14148308336734772,0.15518324077129364
1.5748889446258545,-0.024804353713989258,-0.002809520810842514,-1.0229023694992065,0.0036234064027667046,-0.01824471540749073,0.017339056357741356,0.15527597069740295,0.16402791440486908,0.14214998483657837,0.13307049870491028
1.5773869752883911,-0.039491016417741776,-0.01894828863441944,-1.0012931823730469,-0.005032455548644066,0.01164703443646431,-0.044969312846660614,0.1823815554380417,0.13186344504356384,0.1145702451467514,0.16548509895801544
1.5798890590667725,0.027539970353245735,0.037519585341215134,-0.9933775663375854,0.01543071586638689,0.0013281810097396374,0.0004487615078687668,0.15130242705345154,0.1555207073688507,0.1458878517150879,0.1410386860370636
1.5823880434036255,-0.047217484563589096,-0.047764264047145844,-1.0320014953613281,-0.016988664865493774,-0.008651284500956535,0.0009909506188705564,0.15370851755142212,0.1592542976140976,0.1389656513929367,0.14117909967899323
1.584887981414795,-0.005447495728731155,0.037533145397901535,-0.9759521484375,0.005025865510106087,0.013502892106771469,-0.00403944356366992,0.1477416306734085,0.1399388462305069,0.14287562668323517,0.16192728281021118
1.587386965751648,0.0030193040147423744,-0.014694241806864738,-1.0236045122146606,0.004928832408040762,-0.017016524448990822,0.05034148693084717,0.13140246272087097,0.17039251327514648,0.164505735039711,0.12562333047389984
1.589887022972107,-0.0466269813477993,0.009629971347749233,-0.9913460612297058,-0.009650630876421928,0.017172347754240036,-0.016342969611287117,0.16533172130584717,0.1357094943523407,0.12634652853012085,0.16476799547672272
1.597146987915039,-0.07202459126710892,0.05135972425341606,-0.9554903507232666,0.012643911875784397,0.015297111123800278,-0.021707672625780106,0.14570048451423645,0.15729913115501404,0.15033161640167236,0.13576443493366241
1.5996439456939697,-0.019124209880828857,-0.013779142871499062,-1.0223971605300903,-0.018011339008808136,-0.012152694165706635,2.8153881430625916e-05,0.14060527086257935,0.16942788660526276,0.1530410349369049,0.12487170100212097
1.6021369695663452,-0.012993124313652515,0.05995412543416023,-0.9738940000534058,0.02135564386844635,0.020743131637573242,-0.03646690398454666,0.15854018926620483,0.1371629536151886,0.13677513599395752,0.15438124537467957
1.6046700477600098,-0.05812327563762665,-0.0504259429872036,-1.022840976715088,-0.010602222755551338,-0.021119626238942146,0.03511253744363785,0.13218249380588531,0.1824759840965271,0.15824955701828003,0.11370207369327545
1.6071540117263794,0.0288035050034523,0.05513105168938637,-0.9769977927207947,-0.0031376746483147144,0.020114988088607788,-0.023474115878343582,0.15565210580825806,0.13764716684818268,0.13287392258644104,0.16057439148426056
1.6096550226211548,-0.0667630136013031,-0.033424608409404755,-1.019089937210083,0.009194490499794483,-0.010518180206418037,0.03443926200270653,0.13723306357860565,0.171145960688591,0.15747074782848358,0.12119264900684357
1.6121549606323242,0.012632813304662704,0.022827649489045143,-0.9945439100265503,-0.0019972529262304306,0.022652870044112206,-0.02017323300242424,0.1554761826992035,0.1337839514017105,0.13359083235263824,0.1645275205373764
1.6146550178527832,-0.015193350613117218,-0.0014204829931259155,-0.9978007674217224,0.004971795249730349,0.004914775025099516,0.015406343154609203,0.14306117594242096,0.1640775203704834,0.14299467206001282,0.13756869733333588
1.6172430515289307,-0.02624807320535183,0.000255035818554461,-1.0074126720428467,-0.026184046640992165,-0.009383519180119038,-0.014650048688054085,0.1666320562362671,0.14371146261692047,0.12441229820251465,0.15249770879745483
1.6196810007095337,0.012773415073752403,0.01896669715642929,-0.9932535886764526,0.004905211739242077,-0.002486712532117963,-0.006868463940918446,0.1558653712272644,0.14289920032024384,0.13785706460475922,0.14993816614151
1.6221669912338257,-0.047114405781030655,-0.00843571126461029,-1.0283942222595215,-0.009618688374757767,-0.009743617847561836,-0.00011563370935618877,0.15464043617248535,0.1525455117225647,0.13583189249038696,0.14277483522891998
1.6246559619903564,0.018199650570750237,0.024837102741003036,-0.9897245168685913,0.008035058155655861,0.019132323563098907,-0.00994566548615694,0.15064376592636108,0.1378309428691864,0.1408732831478119,0.1564277708530426
1.6271580457687378,-0.049585241824388504,-0.023095358163118362,-1.0273712873458862,-0.011838860809803009,-0.009607846848666668,0.021483059972524643,0.14250653982162476,0.16258396208286285,0.14719504117965698,0.13380581140518188
1.62978196144104,0.024579858407378197,0.04121647775173187,-0.9734803438186646,0.010840406641364098,0.012087661772966385,-0.012624829076230526,0.15914273262023926,0.14718887209892273,0.13266639411449432,0.14754678308963776
1.6321649551391602,-0.053850408643484116,-0.03766161948442459,-1.020561933517456,-0.006918749772012234,-0.020316850394010544,0.027173135429620743,0.1466679871082306,0.17418722808361053,0.1445780247449875,0.12153372168540955
1.6346709728240967,0.029218629002571106,0.055595964193344116,-0.9739786386489868,0.00811748206615448,0.013964012265205383,-0.022750064730644226,0.16227203607559204,0.13662302494049072,0.1291932761669159,0.16000154614448547
1.6418850421905518,-0.0921192616224289,-0.10351202636957169,-1.0592613220214844,-0.01979791186749935,-0.03304186463356018,0.053163498640060425,0.12083365768194199,0.20339764654636383,0.16790121793746948,0.09455575048923492
1.644273042678833,0.0005387887358665466,0.023843519389629364,-0.9963148832321167,0.0019685858860611916,-0.000629933550953865,-0.01169108971953392,0.14955557882785797,0.14108026027679443,0.14007553458213806,0.15532438457012177
1.6468310356140137,-0.059598393738269806,-0.0553341843187809,-1.0390232801437378,-0.0065280902199447155,-0.023563064634799957,0.03955041617155075,0.13231228291988373,0.17112058401107788,0.15883219242095947,0.12304425239562988
1.6492780447006226,0.006769109517335892,0.03774349018931389,-0.9786086082458496,0.014837462455034256,0.0026389388367533684,-0.010978680104017258,0.15621712803840637,0.13704106211662292,0.13499188423156738,0.15641452372074127
1.6517740488052368,-0.053517188876867294,-0.040046948939561844,-1.018038272857666,-0.018258964642882347,-0.011799618601799011,0.027166754007339478,0.13990814983844757,0.1649339646100998,0.14705510437488556,0.13219228386878967
1.6543530225753784,0.010496634989976883,0.0386187806725502,-0.9879181385040283,0.011118710041046143,0.01366386841982603,-0.019103102385997772,0.17007091641426086,0.1309240758419037,0.12070563435554504,0.16337347030639648
1.6567840576171875,-0.047422200441360474,-0.02751678042113781,-1.015182614326477,-0.002671292517334223,-0.006455723661929369,0.01545486506074667,0.1548750102519989,0.1572474092245102,0.13679814338684082,0.13762372732162476
1.6592830419540405,0.007302144542336464,0.021601051092147827,-0.9981866478919983,0.010895786806941032,0.00646631745621562,-0.01502758078277111,0.1635381281375885,0.1361066848039627,0.12881122529506683,0.1597122848033905
1.6619369983673096,-0.04116293042898178,-0.011572870425879955,-1.0083203315734863,-0.008960893377661705,-0.01025361567735672,0.016798604279756546,0.142507404088974,0.1644352376461029,0.14640730619430542,0.1364266276359558
1.6642869710922241,0.004156481474637985,0.007344291545450687,-1.0064886808395386,0.0003644120879471302,0.003436656668782234,-0.0020248331129550934,0.14966242015361786,0.14586207270622253,0.14273442327976227,0.15278121829032898
1.6668859720230103,-0.02621816098690033,-0.0005979626439511776,-1.0003035068511963,-0.0030102385208010674,-0.004768637008965015,0.011544846929609776,0.149312362074852,0.1533016711473465,0.15166033804416656,0.13794592022895813
1.6692910194396973,-0.009120362810790539,0.008358797058463097,-1.0040793418884277,-0.013749581761658192,-0.0056649865582585335,-0.0013936888426542282,0.15123900771141052,0.14862774312496185,0.14090986549854279,0.1516825258731842
1.6717920303344727,-0.01918150670826435,0.010996360331773758,-0.9736983776092529,0.02471722662448883,0.0006071312818676233,-0.0029195051174610853,0.15777070820331573,0.14830394089221954,0.14040550589561462,0.14580222964286804
1.6742819547653198,-0.02055814489722252,-0.00041323620826005936,-1.0326869487762451,-0.02054637297987938,0.005951950792223215,-0.004715889226645231,0.1557334065437317,0.15330752730369568,0.1339293122291565,0.1482594907283783
1.6767849922180176,-0.01209571585059166,0.010657280683517456,-0.9851717352867126,0.024420645087957382,0.008881043642759323,-0.008123010396957397,0.15767595171928406,0.1467359960079193,0.1374901384115219,0.1479795128107071
1.6792869567871094,-0.024136554449796677,-0.0018494324758648872,-1.035545825958252,-0.0339067317545414,-0.0016329893842339516,0.00891234539449215,0.14559176564216614,0.16151660680770874,0.13932058215141296,0.14281421899795532
1.6864039897918701,-0.03652571514248848,-0.0014071399345993996,-1.058457374572754,-0.09884297847747803,-0.008253447711467743,0.030026128515601158,0.14266782999038696,0.1672019064426422,0.13644099235534668,0.14035046100616455
1.688912034034729,-0.018004173412919044,0.001456939964555204,-1.0056037902832031,0.0012271590530872345,0.003087389748543501,0.0040049562230706215,0.16583751142024994,0.14093005657196045,0.13701131939888,0.14201411604881287
1.6916190385818481,-0.01872851327061653,0.010724950581789017,-1.0221691131591797,-0.0536644347012043,-0.002099755220115185,0.0180426724255085,0.14679262042045593,0.1629263162612915,0.1341177374124527,0.14113397896289825
1.6939599514007568,-0.018973346799612045,-0.002643296029418707,-1.0152345895767212,0.015854768455028534,4.968722350895405e-05,-0.0050205048173666,0.18479135632514954,0.15021106600761414,0.11972810328006744,0.13027845323085785
1.696571946144104,-0.003438366111367941,0.017336014658212662,-1.000076174736023,-0.029445067048072815,-0.004122102167457342,6.358325481414795e-05,0.16894486546516418,0.16799882054328918,0.11357329785823822,0.13492612540721893
1.6989519596099854,-0.030430112034082413,-0.004157494753599167,-1.0194830894470215,0.003617333248257637,-0.0038855066522955894,-0.007720766123384237,0.17199604213237762,0.1549694985151291,0.12159464508295059,0.13739125430583954
1.7014579772949219,0.0035323575139045715,0.017958329990506172,-0.9799467325210571,-0.00456599798053503,0.001583537319675088,-0.005883684381842613,0.15539737045764923,0.14806371927261353,0.13322393596172333,0.14980728924274445
1.7039680480957031,-0.04145117849111557,0.005773758981376886,-1.0196664333343506,-0.008543407544493675,0.0016543769743293524,0.002397242933511734,0.15087836980819702,0.15203240513801575,0.13819023966789246,0.14588594436645508
1.7065579891204834,0.002978842705488205,0.0008363383822143078,-0.9854428768157959,0.014919208362698555,0.006135645788162947,-0.0009141116170212626,0.1416105329990387,0.13191306591033936,0.15716452896595,0.15748585760593414
1.7089749574661255,-0.02536536380648613,0.01985303871333599,-1.0160119533538818,-0.02000981941819191,0.0008468166925013065,0.012108932249248028,0.135735884308815,0.15043005347251892,0.15059396624565125,0.15268844366073608
1.7114640474319458,-0.011316860094666481,-0.016162380576133728,-1.0032156705856323,0.021678615361452103,-0.002129986183717847,0.00011666864156723022,0.1554098129272461,0.14128458499908447,0.14598247408866882,0.14804258942604065
1.713973045349121,-0.004383702762424946,0.030893567949533463,-0.9985265731811523,-0.022875070571899414,-0.0018233698792755604,0.010029331780970097,0.14402765035629272,0.15629354119300842,0.1412929743528366,0.1495356559753418
1.7164640426635742,-0.03451388701796532,-0.019670378416776657,-1.0156974792480469,0.017714349552989006,-0.0011737935710698366,-0.0024743140675127506,0.15087303519248962,0.15311314165592194,0.13964232802391052,0.1475430727005005
1.7189639806747437,0.015464229509234428,0.023893695324659348,-0.9839266538619995,-0.007034096866846085,0.004508046433329582,-0.00205597304739058,0.14565294981002808,0.15211191773414612,0.14071962237358093,0.152528777718544
1.7214690446853638,-0.04723157733678818,-0.00197695754468441,-1.0153485536575317,0.010959981009364128,-0.006931638345122337,-0.005705494433641434,0.15889930725097656,0.15344619750976562,0.13568198680877686,0.14276273548603058
1.7239760160446167,0.012169215828180313,-0.010968577116727829,-1.002915382385254,0.006221570074558258,-0.0010446454398334026,-0.012544603087008,0.16473329067230225,0.14523544907569885,0.13537481427192688,0.14521574974060059
1.7311819791793823,-0.010213030502200127,0.07693091034889221,-0.9556941986083984,0.028542745858430862,-0.008104822598397732,0.013266620226204395,0.1443518102169037,0.16622991859912872,0.14644981920719147,0.13304927945137024
1.73356294631958,-0.040154650807380676,-0.0052895620465278625,-1.0032776594161987,0.027941040694713593,-0.02684563584625721,0.004823391325771809,0.1605059802532196,0.16408398747444153,0.13409635424613953,0.1312589943408966
1.7360810041427612,0.01838771626353264,0.033889129757881165,-0.9825082421302795,-0.014696720987558365,-0.013315463438630104,0.007260454352945089,0.14590984582901,0.16140806674957275,0.13958889245986938,0.14291934669017792
1.7387479543685913,-0.05001182109117508,0.02448948845267296,-1.0142937898635864,-0.013035403564572334,-0.0127478688955307,0.011133531108498573,0.14835502207279205,0.16349853575229645,0.13831835985183716,0.1395517885684967
1.7412530183792114,0.0105183906853199,-0.01931646466255188,-1.0167882442474365,0.023686153814196587,0.0025697811506688595,-0.001911055762320757,0.15572887659072876,0.14399220049381256,0.14357301592826843,0.14635130763053894
1.7435749769210815,-0.025174016132950783,0.04332893341779709,-0.994657576084137,-0.004533662460744381,0.005925511941313744,0.008469742722809315,0.14449860155582428,0.15506841242313385,0.14337481558322906,0.14664402604103088
1.7461639642715454,-0.01758401095867157,-0.03803889825940132,-1.0243878364562988,0.0027564656920731068,0.003986213821917772,-0.002588548231869936,0.15553095936775208,0.1470671445131302,0.14015322923660278,0.14752759039402008
1.7487519979476929,0.0028845546767115593,0.026728959754109383,-0.9735180735588074,-0.004678581841289997,0.0029454627074301243,0.0028242638800293207,0.15294721722602844,0.15174153447151184,0.13466939330101013,0.15187132358551025
1.7510650157928467,-0.040779512375593185,0.0012752963230013847,-0.9993956685066223,-0.005648096092045307,-0.005927466321736574,0.0037007834762334824,0.15878239274024963,0.15724462270736694,0.13150575757026672,0.14328989386558533
1.7535849809646606,0.010939117521047592,-0.020371831953525543,-1.000563144683838,0.01760716922581196,0.001462938031181693,-0.0016159755177795887,0.16037431359291077,0.14610961079597473,0.1381358802318573,0.14515304565429688
1.756080985069275,-0.030174508690834045,0.04531599208712578,-0.992546021938324,-0.019649846479296684,0.000136965187266469,0.009055543690919876,0.14812257885932922,0.15917780995368958,0.13603752851486206,0.14522945880889893
1.7585829496383667,-0.007571300491690636,-0.029469052329659462,-1.0385675430297852,0.006491071544587612,0.004256425425410271,-0.0044885543175041676,0.15962478518486023,0.14816206693649292,0.13844329118728638,0.1418791562318802
1.7684760093688965,-0.029301824048161507,0.05113719031214714,-0.9790021181106567,-0.023549027740955353,-0.0007442277856171131,0.005541383288800716,0.1528354436159134,0.1675170660018921,0.12478454411029816,0.14136114716529846
1.7759230136871338,-0.036433618515729904,0.013814580626785755,-1.028950572013855,-0.015481756068766117,0.0010259384289383888,-0.0017945065628737211,0.1612870991230011,0.1431816816329956,0.13887563347816467,0.1439613699913025
1.77839195728302,-0.012380775064229965,-0.030887644737958908,-1.0118029117584229,0.018206460401415825,0.003752425778657198,0.0007186492439359426,0.14949336647987366,0.13310635089874268,0.1568651795387268,0.14813917875289917
1.7807509899139404,-0.021761661395430565,0.043644554913043976,-0.9899494647979736,-0.026610516011714935,5.257967859506607e-05,0.0067521571181714535,0.14033949375152588,0.14914202690124512,0.1467617154121399,0.15163448452949524
1.7832969427108765,-0.023539667949080467,-0.03321387618780136,-1.0204529762268066,0.018623236566781998,0.0027828786987811327,-0.002929193899035454,0.15708261728286743,0.14148861169815063,0.144563227891922,0.14573517441749573
1.7857489585876465,-0.006364766042679548,0.01587199792265892,-0.9921489953994751,-0.0038774441927671432,-0.0024775522761046886,0.006792160216718912,0.1474817991256714,0.15377485752105713,0.1432705521583557,0.1454986333847046
1.788243055343628,-0.018880780786275864,0.024182945489883423,-1.0093450546264648,-0.01734175719320774,-0.0005633889813907444,0.006388472393155098,0.15289166569709778,0.15849953889846802,0.13456428050994873,0.14523069560527802
1.790742039680481,-0.019176382571458817,-0.037843137979507446,-1.0110894441604614,0.026129215955734253,-0.0014534757938235998,-0.0006096467841416597,0.16455671191215515,0.14909040927886963,0.1377502679824829,0.14012710750102997
1.7933850288391113,-0.004363084677606821,0.05477886646986008,-0.9902299642562866,-0.030754752457141876,-0.0039496817626059055,0.005933156702667475,0.1497407853603363,0.16214512288570404,0.13260294497013092,0.1469707190990448
1.7957500219345093,-0.036555901169776917,-0.021350108087062836,-1.018644094467163,0.01638639345765114,-0.001911570318043232,-0.004411144182085991,0.16060596704483032,0.14939826726913452,0.13521051406860352,0.14603854715824127
1.7982430458068848,-0.008441301062703133,0.0016361614689230919,-0.9932293891906738,-0.00337071530520916,-0.0026720953173935413,0.0012368590105324984,0.1529381275177002,0.15128996968269348,0.14028143882751465,0.14647404849529266
1.8008899688720703,-0.012609632685780525,0.04241015389561653,-1.0012093782424927,-0.01801018789410591,0.004388860892504454,0.0019260188564658165,0.14789247512817383,0.15439993143081665,0.13725799322128296,0.1511501669883728
1.8032599687576294,-0.03322754427790642,-0.041710950434207916,-1.0130667686462402,0.02027100697159767,0.003219388425350189,-0.0038411361165344715,0.1601177155971527,0.1471627652645111,0.13919594883918762,0.14465577900409698
1.8058860301971436,0.013848036527633667,0.05080469697713852,-0.9881647825241089,-0.03020365536212921,4.225876182317734e-05,0.005679367575794458,0.15090630948543549,0.16443532705307007,0.12961868941783905,0.1469588577747345
1.8083690404891968,-0.03333045914769173,-0.005702270194888115,-1.0097768306732178,0.014598168432712555,-0.0030486283358186483,-0.000490743201225996,0.165556401014328,0.15625055134296417,0.13158267736434937,0.13932763040065765
1.8107789754867554,-0.004453388974070549,-0.01730039343237877,-1.007379174232483,-0.004471738822758198,-0.003763115731999278,0.00045924820005893707,0.16103485226631165,0.1550087332725525,0.1348651796579361,0.14253878593444824
1.8133879899978638,0.0010249258484691381,0.05138850957155228,-0.9978145360946655,-0.016504917293787003,0.0002827080897986889,0.005468865856528282,0.14075003564357758,0.1500791758298874,0.14509014785289764,0.15822070837020874
1.820739984512329,-0.06056246906518936,0.03223123401403427,-1.0038747787475586,0.023600822314620018,-0.003978862427175045,0.0012378072133287787,0.17141541838645935,0.1542896330356598,0.13342776894569397,0.1362413465976715
1.823240041732788,-0.03836050257086754,-0.029250703752040863,-1.0178718566894531,0.010218326933681965,-0.004769301973283291,-0.0009996241424232721,0.17126958072185516,0.15708065032958984,0.130244180560112,0.13641291856765747
1.8256930112838745,0.003935607150197029,0.042114436626434326,-0.9942373037338257,-0.0065894960425794125,-0.0013623812701553106,0.004980612546205521,0.15762709081172943,0.1651265025138855,0.12885946035385132,0.14273178577423096
1.8281819820404053,-0.05198395252227783,-0.010968901216983795,-1.0109100341796875,0.0125889265909791,-0.005269520916044712,0.0010514309396967292,0.16582830250263214,0.15965905785560608,0.13014774024486542,0.13866978883743286
1.8306870460510254,-0.0025546420365571976,-0.019086804240942,-1.0141665935516357,-0.0006446978077292442,0.0032519083470106125,0.0027743326500058174,0.1588081568479538,0.15467019379138947,0.13745751976966858,0.1436116099357605
1.833292007446289,-0.011238956823945045,0.045382700860500336,-0.982846736907959,-0.0015741281677037477,0.0020536973606795073,0.01264493353664875,0.14930899441242218,0.1598726212978363,0.14147454500198364,0.14424917101860046
1.8356820344924927,-0.015673687681555748,0.0783047005534172,-0.9668529629707336,-0.002048750873655081,0.0014418188948184252,0.017685454338788986,0.1592990607023239,0.16289204359054565,0.13827717304229736,0.1347772628068924
1.8381880521774292,-0.043875642120838165,-0.01067192479968071,-1.0082746744155884,0.004952788818627596,0.0010922520887106657,0.0040803393349051476,0.16852843761444092,0.15669496357440948,0.13024748861789703,0.1401045024394989
1.8407039642333984,0.0155573058873415,0.014240032061934471,-0.9900239706039429,-0.0019136923365294933,0.0038167026359587908,0.008312854915857315,0.15563851594924927,0.15483832359313965,0.13837316632270813,0.14701440930366516
1.8431910276412964,-0.02801167592406273,0.046737588942050934,-0.9912259578704834,-0.012867447920143604,-0.004850474651902914,0.005771996453404427,0.1548464000225067,0.15814416110515594,0.1330297291278839,0.15008601546287537
1.8456939458847046,-0.025820137932896614,-0.042701080441474915,-1.0301954746246338,0.011647590436041355,-0.001368813798762858,-0.007250484079122543,0.16622832417488098,0.14670631289482117,0.13324622809886932,0.15012739598751068
1.848270058631897,0.008892253041267395,0.04210667312145233,-0.9828593730926514,-0.007258785888552666,-0.003870151238515973,0.007192679680883884,0.14947792887687683,0.16366074979305267,0.13582521677017212,0.14677244424819946
1.8506970405578613,-0.0359182208776474,0.02545991912484169,-1.010941743850708,-0.006148035638034344,-0.0032672553788870573,-5.362415686249733e-05,0.15715482831001282,0.1604810357093811,0.12981274724006653,0.1474880427122116
1.8531880378723145,-0.006444070488214493,-0.0450114905834198,-1.0150599479675293,0.019604267552495003,0.0038364422507584095,-0.002184024779126048,0.16109168529510498,0.14998380839824677,0.13818684220314026,0.1448076069355011
1.8558169603347778,0.00032831705175340176,0.06631683558225632,-0.9710829257965088,-0.022130480036139488,-0.0006257584318518639,0.01502589974552393,0.13428819179534912,0.15185070037841797,0.14972716569900513,0.15735653042793274
1.8583110570907593,-0.03694874793291092,-0.02008991315960884,-1.0253280401229858,0.006058832630515099,0.000931352551560849,0.0007291059009730816,0.15375667810440063,0.14296138286590576,0.1424349844455719,0.15407489240169525
1.865578055381775,-0.05105949193239212,-0.13357174396514893,-1.0621793270111084,0.057202283293008804,0.002257033484056592,-0.015212765894830227,0.1658843457698822,0.1474575251340866,0.1351659595966339,0.14589349925518036
1.8680959939956665,-0.00447625108063221,-0.026609808206558228,-1.00450599193573,0.015310071408748627,0.001534565002657473,-0.0012023914605379105,0.1551927626132965,0.156405508518219,0.1388678252696991,0.14292685687541962
1.870743989944458,-0.025499027222394943,0.01562611758708954,-1.0136107206344604,0.0003996049053966999,0.0036281789653003216,-0.0043638357892632484,0.1518450677394867,0.1636548638343811,0.13283921778202057,0.14344026148319244
1.8730920553207397,-0.03413380682468414,-0.055119652301073074,-1.0245709419250488,0.023851390928030014,0.004669570364058018,-0.005000972654670477,0.15945389866828918,0.15615293383598328,0.13689175248146057,0.13907992839813232
1.8756940364837646,0.003379376605153084,0.03942759335041046,-0.9843553900718689,-0.01665826141834259,0.0023188358172774315,0.0064958613365888596,0.1570757031440735,0.17113074660301208,0.12832465767860413,0.1354878842830658
1.8782110214233398,-0.021441422402858734,0.015202304348349571,-1.0153288841247559,0.0023711584508419037,-0.00183367938734591,0.004767337813973427,0.16079676151275635,0.16730062663555145,0.12800396978855133,0.13657423853874207
1.8805910348892212,-0.02297246642410755,-0.0359121635556221,-1.0155678987503052,0.019944922998547554,-0.0026094375643879175,0.0024421745911240578,0.16416478157043457,0.1578543335199356,0.1341818869113922,0.1364692896604538
1.8831089735031128,0.008343209512531757,0.04308536276221275,-0.9899706840515137,-0.022931763902306557,0.001319256261922419,0.011798969469964504,0.1464618444442749,0.1630973219871521,0.1373356729745865,0.1454659402370453
1.88571298122406,-0.03750809654593468,-0.005976865068078041,-1.0206098556518555,0.01619480550289154,0.001019323244690895,-0.0018306444399058819,0.1624656617641449,0.15038761496543884,0.13475993275642395,0.14432016015052795
1.8882160186767578,-0.014118017628788948,-0.024135053157806396,-1.0049059391021729,0.005203152075409889,0.00570747209712863,-0.0017047915607690811,0.156879723072052,0.14734436571598053,0.13980120420455933,0.1474914252758026
1.8905949592590332,0.010265903547406197,0.04376637935638428,-0.986539900302887,-0.013815044425427914,0.003952357918024063,0.005428927484899759,0.14631128311157227,0.15396486222743988,0.1405925452709198,0.1502833217382431
1.8931870460510254,-0.04847276955842972,-0.02110792137682438,-1.014054298400879,0.02148335799574852,-0.003986487630754709,-0.00521452259272337,0.16367097198963165,0.14853106439113617,0.13483518362045288,0.14377114176750183
1.8955849409103394,-0.006333550438284874,-0.015201725997030735,-1.0015206336975098,-0.011476252228021622,-0.004282367881387472,-0.001222294638864696,0.15758372843265533,0.15374453365802765,0.13493430614471436,0.14427581429481506
1.8982139825820923,-0.001208978472277522,0.04720073193311691,-0.9849607944488525,-0.0033711378928273916,-0.004952789284288883,0.005588244181126356,0.147739976644516,0.15278856456279755,0.1365785002708435,0.15318842232227325
1.9005969762802124,-0.046931345015764236,-0.02459947019815445,-1.0159361362457275,0.012984293513000011,-0.00010406156070530415,-0.004175665322691202,0.16019406914710999,0.14663811028003693,0.133716881275177,0.14956462383270264
1.9031219482421875,0.00899343192577362,-0.0058817267417907715,-0.9968262314796448,-0.006816009059548378,0.0017119322437793016,-5.648937076330185e-05,0.15633368492126465,0.16001233458518982,0.13238278031349182,0.14195039868354797
1.9102519750595093,0.07191433012485504,0.04138960689306259,-0.9500860571861267,-0.006879041437059641,-0.0005183467292226851,0.02138313464820385,0.1468503624200821,0.1584094762802124,0.14640158414840698,0.14119195938110352
1.9127700328826904,0.0026669539511203766,0.07764963060617447,-0.9765398502349854,-0.01175227016210556,0.0019701069686561823,0.01577736996114254,0.14758166670799255,0.15682244300842285,0.14039787650108337,0.14806094765663147
1.9153670072555542,-0.026550738140940666,-0.04934358224272728,-1.0134797096252441,0.014221953228116035,0.004334287717938423,0.00032152608036994934,0.16198167204856873,0.1456059217453003,0.13723212480545044,0.1477089822292328
1.9179250001907349,0.028029553592205048,0.04404216259717941,-0.9681736826896667,-0.013151568360626698,0.000688491272740066,0.009263841435313225,0.14449243247509003,0.16099345684051514,0.13653096556663513,0.15007002651691437
1.9203979969024658,-0.029093056917190552,0.03362869843840599,-1.006162166595459,-0.0035904652904719114,-0.00028084489167667925,-0.003807076718658209,0.1561489999294281,0.15564608573913574,0.12875671684741974,0.15109995007514954
1.9227650165557861,-0.018630947917699814,-0.0592658594250679,-1.0152885913848877,0.015149484388530254,-0.003148525720462203,-0.007511521223932505,0.16404405236244202,0.15076380968093872,0.13224902749061584,0.14421015977859497
1.9252710342407227,0.015183801762759686,0.06215927004814148,-0.9847729206085205,-0.019130993634462357,4.570267628878355e-05,0.004412093665450811,0.14885716140270233,0.16103611886501312,0.13517031073570251,0.1458488404750824
1.927925944328308,-0.03687623515725136,-0.007943429052829742,-1.024245023727417,0.005613573826849461,0.0008407052955590189,-0.007891329936683178,0.1599183976650238,0.15568895637989044,0.12995034456253052,0.1450408548116684
1.9302860498428345,-0.009352046996355057,-0.03852255269885063,-1.0093772411346436,0.007606016471982002,-0.00017088596359826624,-0.00041046086698770523,0.15785738825798035,0.15633347630500793,0.1372966766357422,0.13887763023376465
1.932926058769226,0.004282097332179546,0.07036095857620239,-0.9829320907592773,-0.02062796801328659,0.006706749089062214,0.006533816922456026,0.1458207368850708,0.16164790093898773,0.1373538225889206,0.14533111453056335
1.9352920055389404,-0.038619160652160645,-0.022559069097042084,-1.0168309211730957,0.009376948699355125,0.000758833484724164,-0.003607963677495718,0.16053476929664612,0.14429259300231934,0.1295384168624878,0.15563218295574188
1.9377820491790771,-0.0052685923874378204,0.002178564667701721,-0.9996743202209473,-0.00042387330904603004,-0.002661844715476036,0.0007057480979710817,0.15488260984420776,0.14699062705039978,0.13539092242717743,0.15260127186775208
1.9403070211410522,0.0024948068894445896,0.05228424444794655,-0.9863225817680359,-0.012149148620665073,0.0017835957696661353,-0.002274308353662491,0.15238334238529205,0.14947345852851868,0.13165707886219025,0.1562434732913971
1.9427800178527832,-0.04728183150291443,-0.026829544454813004,-1.0220675468444824,0.0138060562312603,-0.004012666642665863,-0.009168975055217743,0.16604843735694885,0.14759060740470886,0.12867502868175507,0.1473580002784729
1.9453370571136475,0.0012115221470594406,0.010455370880663395,-1.0003422498703003,0.0008444986306130886,-0.0008758753538131714,-0.004194440320134163,0.16114011406898499,0.15076377987861633,0.1326010525226593,0.14509668946266174
1.9477829933166504,-0.002951092552393675,0.0350363627076149,-0.9888944625854492,-0.005506947636604309,0.0007770074298605323,0.0032112400513142347,0.15231868624687195,0.15611505508422852,0.13417311012744904,0.14694055914878845
1.954893946647644,-0.026802638545632362,0.06224961578845978,-0.9809082746505737,-0.00349381472915411,-0.0075367046520113945,0.012596184387803078,0.15794046223163605,0.15965577960014343,0.1320722997188568,0.13978642225265503
1.9575250148773193,-0.045193012803792953,-0.003339216113090515,-1.0175483226776123,0.00934640970081091,-0.006189105100929737,0.000509562436491251,0.16986438632011414,0.15800116956233978,0.12218418717384338,0.140140563249588
1.96002197265625,0.0033931471407413483,-0.005482075735926628,-0.9956037998199463,-0.0038426192477345467,-0.00016834703274071217,-0.0018794439965859056,0.16275659203529358,0.1522132009267807,0.12875434756278992,0.1474033147096634
1.962401032447815,-0.009985263459384441,0.05222776159644127,-0.9908534288406372,-0.010851067490875721,-0.005920800846070051,-0.0017354844603687525,0.15747672319412231,0.155063658952713,0.1279929280281067,0.15084320306777954
1.9649579524993896,-0.03864248842000961,-0.025838056579232216,-1.0306729078292847,0.012531555257737637,0.0034856980200856924,-0.01782733015716076,0.1693245768547058,0.14287449419498444,0.12632635235786438,0.15277394652366638
1.9675270318984985,0.009141933172941208,-0.009075799956917763,-0.9733878374099731,-0.007246216759085655,0.0036627836525440216,-0.0058974698185920715,0.15469378232955933,0.13638976216316223,0.1454654037952423,0.15453103184700012
1.9700510501861572,-0.015337638556957245,0.06110988184809685,-0.9906787872314453,-0.01779879257082939,0.003270531538873911,-0.004886317066848278,0.1504451036453247,0.1460648775100708,0.13708187639713287,0.1579543948173523
1.972406029701233,-0.04864030331373215,-0.04929588735103607,-1.0288132429122925,0.013226384297013283,0.004939400125294924,-0.012790337204933167,0.16409875452518463,0.14287245273590088,0.13326463103294373,0.15197810530662537
1.975011944770813,0.016415076330304146,0.0225331112742424,-0.9673000574111938,-0.009502079337835312,-0.005461694672703743,0.005307827610522509,0.1555517166852951,0.171955406665802,0.12322352081537247,0.14227208495140076
1.9775350093841553,-0.03000737726688385,0.04714807868003845,-1.0208271741867065,-0.011722393333911896,-0.0007123167160898447,0.0011999316047877073,0.16002801060676575,0.16671475768089294,0.12151287496089935,0.1454608142375946
1.9799129962921143,-0.04329513758420944,-0.058225639164447784,-1.0171235799789429,0.008777575567364693,-0.003867653664201498,-0.0004887824761681259,0.16697591543197632,0.1585765779018402,0.12746749818325043,0.1412920355796814
1.9824639558792114,0.017889222130179405,0.052005596458911896,-0.9619078636169434,-0.01605328917503357,0.0031148288398981094,0.009791714139282703,0.1514529138803482,0.1616387665271759,0.13410794734954834,0.14765332639217377
1.9850430488586426,-0.043425191193819046,0.019725698977708817,-1.026241421699524,-0.003452870063483715,0.015282494947314262,-0.0018549705855548382,0.1594623327255249,0.15227925777435303,0.13027146458625793,0.15329217910766602
1.987494945526123,-0.03037354163825512,-0.04964431747794151,-0.9946761727333069,0.009366869926452637,0.0039216335862874985,-0.004594097845256329,0.15711098909378052,0.1546640396118164,0.13818466663360596,0.1456996649503708
1.989956021308899,0.021932899951934814,0.054806068539619446,-0.9724299907684326,-0.01812935248017311,0.008218798786401749,-0.0027439629193395376,0.14904136955738068,0.1567402482032776,0.13663055002689362,0.1535373032093048
1.992542028427124,-0.03953341394662857,-0.006733538582921028,-1.037636160850525,-0.006029163952916861,0.0007806187495589256,-0.010576732456684113,0.17278432846069336,0.15744294226169586,0.11331743001937866,0.15264981985092163
1.999945044517517,-0.10765022039413452,-0.07612700760364532,-1.0706185102462769,0.02746012806892395,-0.005359936039894819,-0.009462381713092327,0.16209551692008972,0.15262089669704437,0.1398155242204666,0.14207056164741516
2.0023880004882812,-0.04169173538684845,-0.04688998684287071,-1.0148158073425293,0.003907746635377407,-0.004564316011965275,-0.0020878773648291826,0.1587490439414978,0.15623514354228973,0.13803941011428833,0.14299723505973816
2.004887104034424,-0.0052143484354019165,0.0190218985080719,-1.0008708238601685,-0.005363480653613806,0.007014382164925337,0.005900631193071604,0.14781703054904938,0.155850350856781,0.14092803001403809,0.15055729448795319
2.0074689388275146,-0.054974012076854706,-0.025460952892899513,-1.028812289237976,0.007719677872955799,-0.00774393230676651,0.010336250066757202,0.152578204870224,0.14955076575279236,0.14639544486999512,0.14569202065467834
2.009890079498291,-0.009378094226121902,-0.012672346085309982,-1.0003522634506226,-0.0007151500321924686,0.0022003729827702045,0.009307784959673882,0.15273776650428772,0.1479625105857849,0.1434168964624405,0.1492822766304016
2.0123889446258545,0.016296107321977615,-0.005471323616802692,-0.984326958656311,-0.005464641842991114,0.007799823768436909,0.008728675544261932,0.14979752898216248,0.1464005410671234,0.1424456536769867,0.15401747822761536
2.0148890018463135,0.013216694816946983,0.020653218030929565,-0.9827951192855835,0.0025962938088923693,0.009887061081826687,0.01228638831526041,0.14693889021873474,0.14810071885585785,0.14330485463142395,0.15440331399440765
2.0173959732055664,-0.03759007900953293,0.000248112715780735,-1.0276376008987427,-0.010943279601633549,-0.006430822890251875,0.010350287891924381,0.15240854024887085,0.15991303324699402,0.13149364292621613,0.14937280118465424
2.0198869705200195,0.003939490765333176,-0.011382930912077427,-0.9971575736999512,0.00248663779348135,0.0011415141634643078,0.0006005894392728806,0.16045823693275452,0.149825781583786,0.1319233626127243,0.1515311896800995
2.0224618911743164,-0.006901074666529894,0.03142452612519264,-0.9859538078308105,-0.0033274516463279724,-5.856086499989033e-05,0.005509697366505861,0.15517370402812958,0.15657711029052734,0.13188305497169495,0.15067163109779358
2.0248870849609375,-0.03666630759835243,0.012902387417852879,-1.0354509353637695,-0.01064134482294321,-0.0016359835863113403,-0.0038385149091482162,0.16944412887096405,0.1661742627620697,0.10810688138008118,0.15106678009033203
2.0274529457092285,0.002971706911921501,-0.02298358455300331,-0.9830924272537231,0.014653011225163937,0.006304030306637287,-0.006714025046676397,0.17134977877140045,0.1526966094970703,0.12238103151321411,0.1480708122253418
2.0299320220947266,-0.012512330897152424,0.04452575370669365,-0.9864343404769897,-0.01582709699869156,0.0013465923257172108,0.005742550827562809,0.15656785666942596,0.16202056407928467,0.1266334354877472,0.14868679642677307
2.0324010848999023,-0.028246138244867325,-0.006988460198044777,-1.0431495904922485,0.0016664965078234673,-0.0032854736782610416,-0.0023607697803527117,0.16781121492385864,0.1545983850955963,0.1250901073217392,0.14644119143486023
2.0348870754241943,0.0012592459097504616,-0.019863396883010864,-0.9766878485679626,0.015642955899238586,-0.0014913282357156277,0.002832114929333329,0.16402286291122437,0.15133172273635864,0.13424664735794067,0.1446441113948822
2.0374979972839355,-0.014890682883560658,0.05027220398187637,-1.0002593994140625,-0.01913871057331562,0.00050755386473611,0.00673952791839838,0.1462601274251938,0.161849707365036,0.13492514193058014,0.1508718878030777
2.044635057449341,-0.01626712642610073,0.0666162520647049,-1.0442521572113037,-0.023275988176465034,0.00287460396066308,-0.0020995717495679855,0.16500547528266907,0.14908327162265778,0.12683407962322235,0.15148068964481354
2.0472230911254883,-0.029085960239171982,-0.011160735040903091,-1.044336199760437,0.004533751867711544,-0.006531888153403997,-0.006780523806810379,0.1735779047012329,0.14954838156700134,0.12071292102336884,0.1487846076488495
2.049783945083618,-0.0054602958261966705,0.026358870789408684,-0.9781596660614014,-0.004658776335418224,-0.0027230039704591036,-0.006335889920592308,0.16472652554512024,0.15291398763656616,0.12281489372253418,0.15268775820732117
2.0521459579467773,-0.010798303410410881,0.020555047318339348,-1.0244537591934204,-0.00799479614943266,0.0025273736100643873,-0.0023523722775280476,0.157039076089859,0.1542636752128601,0.12733089923858643,0.15440493822097778
2.054694890975952,-0.034772057086229324,-0.00918569602072239,-1.0248841047286987,0.005717596039175987,-0.005174776539206505,0.0004610623000189662,0.16389840841293335,0.15594832599163055,0.12839248776435852,0.14440426230430603
2.0571329593658447,-0.002654658630490303,0.012226675637066364,-0.9761841297149658,-0.006628102622926235,0.0027008582837879658,0.002423226833343506,0.1571468710899353,0.15693727135658264,0.12291005253791809,0.15519002079963684
2.059638023376465,-0.018666468560695648,0.009218158200383186,-1.0286822319030762,-0.0023916498757898808,0.0027479329146444798,0.007399861700832844,0.15899883210659027,0.1601257175207138,0.12512607872486115,0.14818134903907776
2.062238931655884,-0.03414655104279518,0.0010828427039086819,-1.0229589939117432,0.0019430476240813732,-0.005635440815240145,0.007199393119663,0.16638590395450592,0.16143813729286194,0.12301033735275269,0.14215993881225586
2.06467604637146,0.003374047577381134,-0.0006062880274839699,-0.9763362407684326,0.0027516819536685944,0.001012509223073721,0.0032758223824203014,0.1625727117061615,0.1520344614982605,0.1284053772687912,0.14989322423934937
2.0671679973602295,-0.018207700923085213,0.019276490435004234,-1.019753098487854,-0.0025969736743718386,-0.003008064581081271,0.008334724232554436,0.16092956066131592,0.15371818840503693,0.12623940408229828,0.15165488421916962
2.0697340965270996,-0.03007332980632782,0.0008224612101912498,-1.0199885368347168,0.00032778107561171055,-0.003766206558793783,-0.0030997395515441895,0.17052748799324036,0.15072068572044373,0.11906574666500092,0.15176457166671753
2.072240114212036,0.002282211557030678,-0.007552410941570997,-0.9678879976272583,0.008187046274542809,0.0064970022067427635,-0.004820418078452349,0.16533584892749786,0.14390401542186737,0.12708881497383118,0.15530148148536682
2.0747220516204834,-0.015883861109614372,0.03179055452346802,-1.022439956665039,-0.00684514781460166,0.005789734423160553,3.454508259892464e-05,0.15682600438594818,0.1510927379131317,0.12616777420043945,0.15714138746261597
2.07716703414917,-0.023770427331328392,-0.02074446529150009,-1.0240938663482666,0.004607883282005787,0.002535816514864564,-0.005940484348684549,0.17304949462413788,0.1485135555267334,0.10650964081287384,0.16350296139717102
2.079756021499634,0.009067756123840809,0.004584962502121925,-0.9672431349754333,0.003222208935767412,0.002660189988091588,0.002013040939345956,0.16472220420837402,0.14828082919120789,0.12047981470823288,0.15878166258335114
2.0822339057922363,-0.013697562739253044,0.02713807485997677,-1.0347381830215454,-0.00714140385389328,0.002725380938500166,0.0013632664922624826,0.15247273445129395,0.14558131992816925,0.12673863768577576,0.1682007908821106
2.0894360542297363,-0.0302249975502491,-0.00770371500402689,-1.0963897705078125,-0.0017107919557020068,0.008045220747590065,0.005320011638104916,0.1715749204158783,0.1508437693119049,0.12415385246276855,0.14801405370235443
2.0919930934906006,-0.03361748158931732,-0.017752021551132202,-1.0342869758605957,-0.00017973384819924831,-0.009071611799299717,0.011470327153801918,0.17404410243034363,0.15925417840480804,0.1210007518529892,0.14003770053386688
2.094470977783203,-0.0011829212307929993,0.03268517181277275,-0.995144248008728,-0.0017765219090506434,0.0020827641710639,0.001242094673216343,0.1703062355518341,0.15189769864082336,0.11706385016441345,0.1545124650001526
2.096971035003662,-0.029165644198656082,-0.023343412205576897,-1.0528385639190674,0.006060626823455095,0.004347611218690872,-0.004871022887527943,0.1950344741344452,0.14231139421463013,0.11084207892417908,0.1449422836303711
2.0995678901672363,-0.023222824558615685,0.016033506020903587,-1.004080891609192,-0.004403884522616863,-0.009713650681078434,-0.0033319524955004454,0.1845753937959671,0.15503829717636108,0.10464829206466675,0.14821693301200867
2.101973056793213,-0.0007219389081001282,0.01237536035478115,-0.9933568239212036,0.005859327036887407,0.006758915726095438,-0.009177017025649548,0.17410625517368317,0.14265355467796326,0.11358021199703217,0.1615968942642212
2.1044559478759766,-0.030245531350374222,-0.019541418179869652,-1.0327385663986206,-0.00040356768295168877,-0.0013030760455876589,0.0005462109111249447,0.16892999410629272,0.14742301404476166,0.12001773715019226,0.15508563816547394
2.106966972351074,-0.0066754939034581184,0.033858127892017365,-0.9953513145446777,-0.015015079639852047,-0.01010981760919094,0.00735527602955699,0.1657862514257431,0.1637253761291504,0.10318834334611893,0.15835002064704895
2.109452962875366,-0.010177820920944214,-0.008700475096702576,-0.9913730025291443,0.013278859667479992,0.005396797321736813,0.0004216735251247883,0.1721266210079193,0.14446069300174713,0.1148606687784195,0.15856340527534485
2.1119699478149414,-0.021350832656025887,-0.004174188245087862,-1.0233774185180664,-0.003705773036926985,-0.004047959577292204,0.007782345172017813,0.16901445388793945,0.14903753995895386,0.11768050491809845,0.15304043889045715
2.1144630908966064,-0.0006905738264322281,0.025200411677360535,-1.0034594535827637,-0.008542445488274097,-0.001421443885192275,0.0001605302095413208,0.16650286316871643,0.1434323936700821,0.1145571619272232,0.1630847454071045
2.1169819831848145,-0.02288401871919632,-0.015161451883614063,-0.9896233081817627,0.014083657413721085,0.003910644445568323,-0.0040253824554383755,0.17283016443252563,0.12812159955501556,0.1273396611213684,0.15964102745056152
2.1194639205932617,-0.01650255173444748,0.002314154990017414,-1.0232813358306885,-0.013264147564768791,-0.00286010280251503,-0.0014595567481592298,0.1695779263973236,0.13887250423431396,0.12097110599279404,0.15949496626853943
2.1219699382781982,-0.00043542589992284775,0.017261957749724388,-1.0001286268234253,-0.001158013939857483,0.000202852301299572,-0.0010176735231652856,0.16590288281440735,0.14001676440238953,0.12067613750696182,0.16279086470603943
2.1245388984680176,-0.03188135102391243,0.0036679194308817387,-0.9793468713760376,0.010441426187753677,0.001894309651106596,-0.004213495645672083,0.1736820638179779,0.14271816611289978,0.11508224159479141,0.15810492634773254
2.127027988433838,-0.013217475265264511,-0.008069798350334167,-1.0192676782608032,-0.014814786612987518,0.001340846298262477,-0.00010915775783360004,0.17126330733299255,0.14090535044670105,0.12139587104320526,0.15608425438404083
2.134216070175171,0.003342482727020979,-0.07575497031211853,-1.038917899131775,0.0005360757932066917,-0.002136134309694171,0.008642087690532207,0.16818813979625702,0.14914801716804504,0.11745022237300873,0.15479713678359985
2.1367299556732178,0.01639997586607933,0.03914780169725418,-0.9975770711898804,-0.012084522284567356,-0.0032834126614034176,0.01564970426261425,0.16326206922531128,0.1546391099691391,0.11448892951011658,0.15715980529785156
2.1392951011657715,-0.037072278559207916,-0.019070493057370186,-1.0212002992630005,0.00355996610596776,-0.00047739618457853794,-0.003573281690478325,0.17986315488815308,0.1417417973279953,0.10798395425081253,0.15992510318756104
2.141735076904297,-0.010589035227894783,-0.047857608646154404,-1.0078587532043457,0.006988490931689739,-0.004739060997962952,-0.0007563581457361579,0.17840923368930817,0.14235103130340576,0.11306025832891464,0.15497255325317383
2.1443450450897217,0.008989640511572361,0.06550143659114838,-0.9892095327377319,-0.013352376408874989,0.0027352068573236465,-0.003605433739721775,0.16959702968597412,0.14294618368148804,0.11070213466882706,0.1645175963640213
2.1467249393463135,-0.04801512137055397,-0.019634347409009933,-1.0173109769821167,0.0074065751396119595,-0.0010041379136964679,-0.011180227622389793,0.19571763277053833,0.1403609663248062,0.10158339142799377,0.1491445004940033
2.14921498298645,-0.011510271579027176,-0.025899283587932587,-1.0014867782592773,0.003814159194007516,-0.005074681714177132,-0.006331012584269047,0.18746356666088104,0.14411219954490662,0.1064409464597702,0.14928796887397766
2.1517279148101807,0.021446458995342255,0.05657247453927994,-0.9904595017433167,-0.017096104100346565,0.008713815361261368,0.0011878060176968575,0.16827288269996643,0.14533734321594238,0.1136721521615982,0.1611429750919342
